heartbeat,host=chris-ubuntu custom_mode=16i,mavlink_version=3i 1732248879281306643
param_value,host=chris-ubuntu param_id="SR0_RAW_SENS",param_value=4,param_count=975i,param_index=65535i 1732248879325049816
param_value,host=chris-ubuntu param_id="SR0_EXT_STAT",param_value=4,param_count=975i,param_index=65535i 1732248879325109897
param_value,host=chris-ubuntu param_count=975i,param_index=65535i,param_id="SR0_RC_CHAN",param_value=4 1732248879325173927
param_value,host=chris-ubuntu param_id="SR0_POSITION",param_value=4,param_count=975i,param_index=65535i 1732248879325228727
param_value,host=chris-ubuntu param_id="SR0_EXTRA3",param_value=4,param_count=975i,param_index=65535i 1732248879325777571
heartbeat,host=chris-ubuntu custom_mode=16i,mavlink_version=3i 1732248879907547654
heartbeat,host=chris-ubuntu custom_mode=16i,mavlink_version=3i 1732248879907627245
heartbeat,host=chris-ubuntu custom_mode=16i,mavlink_version=3i 1732248880776463052
heartbeat,host=chris-ubuntu custom_mode=16i,mavlink_version=3i 1732248881067990260
param_value,host=chris-ubuntu param_count=975i,param_index=65535i,param_id="COMPASS_DEV_ID4",param_value=0 1732248881224905993
param_value,host=chris-ubuntu param_index=65535i,param_id="COMPASS_DEV_ID5",param_value=0,param_count=975i 1732248881225000634
param_value,host=chris-ubuntu param_id="COMPASS_DEV_ID6",param_value=0,param_count=975i,param_index=65535i 1732248881225072454
param_value,host=chris-ubuntu param_count=975i,param_index=65535i,param_id="COMPASS_DEV_ID7",param_value=0 1732248881225126985
param_value,host=chris-ubuntu param_value=0,param_count=975i,param_index=65535i,param_id="COMPASS_DEV_ID8" 1732248881225228125
param_value,host=chris-ubuntu param_id="COMPASS_DEV_ID4",param_value=0,param_count=975i,param_index=65535i 1732248881379863483
param_value,host=chris-ubuntu param_id="COMPASS_DEV_ID5",param_value=0,param_count=975i,param_index=65535i 1732248881379926273
param_value,host=chris-ubuntu param_count=975i,param_index=65535i,param_id="COMPASS_DEV_ID6",param_value=0 1732248881379995474
param_value,host=chris-ubuntu param_count=975i,param_index=65535i,param_id="COMPASS_DEV_ID7",param_value=0 1732248881380079104
param_value,host=chris-ubuntu param_count=975i,param_index=65535i,param_id="COMPASS_DEV_ID8",param_value=0 1732248881380134005
statustext,host=chris-ubuntu text="Calibrating barometer",id=0i,chunk_seq=0i 1732248881381769076
param_value,host=chris-ubuntu param_index=65535i,param_id="BARO_ALT_OFFSET",param_value=0,param_count=975i 1732248881382764272
heartbeat,host=chris-ubuntu custom_mode=16i,mavlink_version=3i 1732248881739902959
heartbeat,host=chris-ubuntu custom_mode=16i,mavlink_version=3i 1732248882077921346
statustext,host=chris-ubuntu text="Initialising ArduPilot",id=0i,chunk_seq=0i 1732248882194910711
heartbeat,host=chris-ubuntu custom_mode=16i,mavlink_version=3i 1732248882751995086
statustext,host=chris-ubuntu text="Barometer 1 calibration complete",id=0i,chunk_seq=0i 1732248882991113218
param_value,host=chris-ubuntu param_index=65535i,param_id="BARO1_GND_PRESS",param_value=99479.109375,param_count=975i 1732248882991789653
statustext,host=chris-ubuntu chunk_seq=0i,text="<startup_ground> Ground start",id=0i 1732248882992843200
statustext,host=chris-ubuntu text="Beginning INS calibration. Do not move vehicle",id=0i,chunk_seq=0i 1732248882992891600
heartbeat,host=chris-ubuntu custom_mode=16i,mavlink_version=3i 1732248883068959119
heartbeat,host=chris-ubuntu custom_mode=16i,mavlink_version=3i 1732248883742464159
heartbeat,host=chris-ubuntu custom_mode=16i,mavlink_version=3i 1732248884077470952
heartbeat,host=chris-ubuntu custom_mode=0i,mavlink_version=3i 1732248884564948274
statustext,host=chris-ubuntu chunk_seq=0i,text="ArduPilot Ready",id=0i 1732248884564996504
statustext,host=chris-ubuntu text="AHRS: DCM active",id=0i,chunk_seq=0i 1732248884565129085
param_value,host=chris-ubuntu param_id="INS_GYROFFS_X",param_value=-0.02380811795592308,param_count=975i,param_index=65535i 1732248884565864920
param_value,host=chris-ubuntu param_id="INS_GYROFFS_Y",param_value=-0.004888513591140509,param_count=975i,param_index=65535i 1732248884565917361
param_value,host=chris-ubuntu param_id="INS_GYROFFS_Z",param_value=0.0028879751916974783,param_count=975i,param_index=65535i 1732248884565970541
param_value,host=chris-ubuntu param_count=975i,param_index=65535i,param_id="INS_GYR_ID",param_value=2162954 1732248884566015261
heartbeat,host=chris-ubuntu mavlink_version=3i,custom_mode=0i 1732248884745303531
rc_channels_scaled,host=chris-ubuntu chan1_scaled=0i,chan3_scaled=0i,chan6_scaled=0i,chan8_scaled=0i,port=0i,chan2_scaled=0i,chan4_scaled=0i,chan5_scaled=0i,chan7_scaled=0i,rssi=0i,time_boot_ms=7553i 1732248884745534082
attitude,host=chris-ubuntu time_boot_ms=7593i,roll=0.027094589546322823,pitch=0.014982489868998528,yaw=0.00013327877968549728,rollspeed=0.00005926674566580914,pitchspeed=0.00006291642057476565,yawspeed=0.00044438475742936134 1732248884784478853
global_position_int,host=chris-ubuntu alt=-400i,vx=0i,vy=0i,vz=0i,time_boot_ms=7593i,lat=0i,hdg=0i,lon=0i,relative_alt=-408i 1732248884784535153
sys_status,host=chris-ubuntu drop_rate_comm=0i,errors_count1=0i,errors_count4=0i,errors_comm=0i,errors_count3=0i,errors_count2=0i,load=28i,voltage_battery=5i,current_battery=13i,battery_remaining=99i 1732248884784744145
power_status,host=chris-ubuntu vservo=0i,vcc=0i 1732248884784785115
meminfo,host=chris-ubuntu brkval=0i,freemem=65535i,freemem32=67288i 1732248884784820235
mission_current,host=chris-ubuntu mission_mode=0i,mission_id=0i,fence_id=0i,rally_points_id=0i,seq=0i,total=0i 1732248884784881536
vfr_hud,host=chris-ubuntu airspeed=0,groundspeed=0,heading=0i,throttle=0i,alt=-0.3999999761581421,climb=-0 1732248884784943206
servo_output_raw,host=chris-ubuntu servo12_raw=0i,servo14_raw=0i,servo13_raw=0i,port=0i,servo1_raw=0i,servo4_raw=1500i,servo7_raw=0i,servo8_raw=0i,servo10_raw=0i,servo15_raw=0i,servo2_raw=0i,servo5_raw=1500i,servo6_raw=0i,servo11_raw=0i,servo16_raw=0i,time_usec=7594214i,servo3_raw=1500i,servo9_raw=0i 1732248884785062907
rc_channels,host=chris-ubuntu chan3_raw=0i,chan11_raw=0i,chan16_raw=0i,time_boot_ms=7594i,chan2_raw=0i,chan4_raw=0i,chan12_raw=0i,chan13_raw=0i,rssi=0i,chan1_raw=0i,chan5_raw=0i,chan9_raw=0i,chan14_raw=0i,chan15_raw=0i,chan17_raw=0i,chancount=0i,chan6_raw=0i,chan7_raw=0i,chan8_raw=0i,chan10_raw=0i,chan18_raw=0i 1732248884785201538
raw_imu,host=chris-ubuntu zmag=0i,id=0i,xacc=13i,zacc=-1014i,zgyro=0i,ymag=0i,xmag=0i,temperature=2686i,time_usec=7594307i,yacc=19i,xgyro=0i,ygyro=0i 1732248884785281798
scaled_pressure,host=chris-ubuntu time_boot_ms=7594i,press_abs=994.837890625,press_diff=0,temperature=2392i,temperature_press_diff=0i 1732248884785331489
gps_raw_int,host=chris-ubuntu satellites_visible=0i,hacc=0i,vacc=0i,vel_acc=0i,epv=65535i,vel=0i,hdg_acc=0i,yaw=0i,alt=0i,cog=0i,lat=0i,lon=0i,alt_ellipsoid=0i,time_usec=0i,eph=65535i 1732248884785439669
system_time,host=chris-ubuntu time_unix_usec=0i,time_boot_ms=7594i 1732248884785473400
ahrs,host=chris-ubuntu omegaix=0,omegaiy=0,omegaiz=0,accel_weight=0,renorm_val=0,error_rp=0.8001428246498108,error_yaw=1 1732248884785640551
hwstatus,host=chris-ubuntu vcc=0i,i2cerr=0i 1732248884804831349
vibration,host=chris-ubuntu clipping_0=0i,clipping_1=0i,clipping_2=0i,time_usec=7614105i,vibration_x=0.02149013616144657,vibration_y=0.02246573194861412,vibration_z=0.03266286104917526 1732248884804914860
battery_status,host=chris-ubuntu id=0i,energy_consumed=0i,current_battery=13i,current_consumed=0i,time_remaining=0i,temperature=32767i,battery_remaining=99i 1732248884805017181
attitude,host=chris-ubuntu yaw=-0.002103609498590231,rollspeed=-0.0024553604889661074,pitchspeed=-0.001610155450180173,yawspeed=0.00019831264216918498,time_boot_ms=7833i,roll=0.026569420471787453,pitch=0.01449593249708414 1732248885024213216
global_position_int,host=chris-ubuntu time_boot_ms=7833i,lon=0i,relative_alt=-304i,vx=0i,hdg=35988i,lat=0i,alt=-300i,vy=0i,vz=0i 1732248885024286577
sys_status,host=chris-ubuntu errors_comm=0i,errors_count2=0i,errors_count4=0i,voltage_battery=1i,errors_count3=0i,load=30i,current_battery=13i,battery_remaining=99i,drop_rate_comm=0i,errors_count1=0i 1732248885024462248
power_status,host=chris-ubuntu vcc=0i,vservo=0i 1732248885024495768
meminfo,host=chris-ubuntu brkval=0i,freemem=65535i,freemem32=67288i 1732248885024532118
mission_current,host=chris-ubuntu rally_points_id=0i,seq=0i,total=0i,mission_mode=0i,mission_id=0i,fence_id=0i 1732248885024579309
vfr_hud,host=chris-ubuntu airspeed=0,groundspeed=0,heading=359i,throttle=0i,alt=-0.29999998211860657,climb=-0 1732248885024616849
servo_output_raw,host=chris-ubuntu time_usec=7834193i,servo14_raw=0i,servo16_raw=0i,servo3_raw=1500i,servo4_raw=1500i,servo12_raw=0i,servo13_raw=0i,servo15_raw=0i,servo1_raw=0i,servo2_raw=0i,servo5_raw=1500i,servo6_raw=0i,servo7_raw=0i,servo8_raw=0i,servo11_raw=0i,port=0i,servo9_raw=0i,servo10_raw=0i 1732248885024703820
rc_channels,host=chris-ubuntu chan11_raw=0i,chan14_raw=0i,chan17_raw=0i,time_boot_ms=7834i,chan1_raw=0i,chan3_raw=0i,chan9_raw=0i,chan12_raw=0i,chan13_raw=0i,rssi=0i,chancount=0i,chan4_raw=0i,chan7_raw=0i,chan8_raw=0i,chan5_raw=0i,chan6_raw=0i,chan10_raw=0i,chan16_raw=0i,chan2_raw=0i,chan15_raw=0i,chan18_raw=0i 1732248885024804610
raw_imu,host=chris-ubuntu xgyro=-1i,id=0i,zacc=-1015i,ygyro=-2i,zgyro=-22i,xmag=0i,ymag=0i,time_usec=7834298i,xacc=10i,yacc=14i,zmag=0i,temperature=2689i 1732248885024856281
scaled_pressure,host=chris-ubuntu time_boot_ms=7834i,press_abs=994.8259887695312,press_diff=0,temperature=2393i,temperature_press_diff=0i 1732248885024895171
gps_raw_int,host=chris-ubuntu time_usec=0i,cog=0i,hdg_acc=0i,lon=0i,alt=0i,vacc=0i,vel_acc=0i,eph=65535i,epv=65535i,vel=0i,hacc=0i,lat=0i,satellites_visible=0i,alt_ellipsoid=0i,yaw=0i 1732248885024966751
system_time,host=chris-ubuntu time_unix_usec=0i,time_boot_ms=7834i 1732248885024988621
ahrs,host=chris-ubuntu omegaiz=0,accel_weight=0,renorm_val=0,error_rp=0.6404021978378296,error_yaw=1,omegaix=0,omegaiy=0 1732248885025114892
hwstatus,host=chris-ubuntu vcc=0i,i2cerr=0i 1732248885044805294
vibration,host=chris-ubuntu vibration_x=0.04381518065929413,vibration_y=0.07873323559761047,vibration_z=0.04997966066002846,clipping_0=0i,clipping_1=0i,clipping_2=0i,time_usec=7854158i 1732248885044858795
battery_status,host=chris-ubuntu energy_consumed=0i,current_battery=13i,id=0i,current_consumed=0i,battery_remaining=99i,temperature=32767i,time_remaining=0i 1732248885045057956
attitude,host=chris-ubuntu time_boot_ms=8093i,roll=0.0260662492364645,pitch=0.014322849921882153,yaw=-0.0019482659408822656,rollspeed=-0.00033650879049673676,pitchspeed=0.00028242971166037023,yawspeed=0.0009965028148144484 1732248885284078074
global_position_int,host=chris-ubuntu time_boot_ms=8093i,alt=-390i,relative_alt=-397i,hdg=35989i,lat=0i,lon=0i,vx=0i,vy=0i,vz=0i 1732248885284150275
sys_status,host=chris-ubuntu errors_count4=0i,errors_comm=0i,errors_count2=0i,battery_remaining=99i,drop_rate_comm=0i,load=29i,current_battery=14i,errors_count1=0i,errors_count3=0i,voltage_battery=2i 1732248885284256796
power_status,host=chris-ubuntu vcc=0i,vservo=0i 1732248885284286366
meminfo,host=chris-ubuntu brkval=0i,freemem=65535i,freemem32=67288i 1732248885284314536
mission_current,host=chris-ubuntu seq=0i,total=0i,mission_mode=0i,mission_id=0i,fence_id=0i,rally_points_id=0i 1732248885284355016
vfr_hud,host=chris-ubuntu alt=-0.38999998569488525,climb=-0,airspeed=0,groundspeed=0,heading=359i,throttle=0i 1732248885284384466
servo_output_raw,host=chris-ubuntu time_usec=8094210i,servo5_raw=1500i,servo7_raw=0i,servo13_raw=0i,servo16_raw=0i,servo15_raw=0i,port=0i,servo2_raw=0i,servo4_raw=1500i,servo6_raw=0i,servo8_raw=0i,servo9_raw=0i,servo10_raw=0i,servo1_raw=0i,servo11_raw=0i,servo14_raw=0i,servo3_raw=1500i,servo12_raw=0i 1732248885284482587
rc_channels,host=chris-ubuntu chan4_raw=0i,chan7_raw=0i,chan8_raw=0i,chan11_raw=0i,chan14_raw=0i,chancount=0i,chan1_raw=0i,chan3_raw=0i,chan5_raw=0i,chan9_raw=0i,chan18_raw=0i,time_boot_ms=8094i,chan15_raw=0i,chan16_raw=0i,chan17_raw=0i,rssi=0i,chan2_raw=0i,chan10_raw=0i,chan12_raw=0i,chan13_raw=0i,chan6_raw=0i 1732248885284578668
raw_imu,host=chris-ubuntu time_usec=8094299i,xacc=12i,zacc=-1014i,zgyro=0i,zmag=0i,yacc=16i,xgyro=0i,ygyro=0i,xmag=0i,ymag=0i,id=0i,temperature=2693i 1732248885284889550
scaled_pressure,host=chris-ubuntu time_boot_ms=8094i,press_abs=994.8363647460938,press_diff=0,temperature=2396i,temperature_press_diff=0i 1732248885284960460
gps_raw_int,host=chris-ubuntu cog=0i,lat=0i,epv=65535i,satellites_visible=0i,alt_ellipsoid=0i,vel_acc=0i,yaw=0i,alt=0i,vel=0i,hdg_acc=0i,time_usec=0i,hacc=0i,vacc=0i,lon=0i,eph=65535i 1732248885285076321
system_time,host=chris-ubuntu time_unix_usec=0i,time_boot_ms=8094i 1732248885285110331
ahrs,host=chris-ubuntu omegaix=0,omegaiy=0,omegaiz=0,accel_weight=0,renorm_val=0,error_rp=0.5125283598899841,error_yaw=1 1732248885285214162
hwstatus,host=chris-ubuntu vcc=0i,i2cerr=0i 1732248885304044387
vibration,host=chris-ubuntu vibration_x=0.027877619490027428,vibration_y=0.04384814202785492,vibration_z=0.03194543346762657,clipping_0=0i,clipping_1=0i,clipping_2=0i,time_usec=8114293i 1732248885304123938
battery_status,host=chris-ubuntu current_consumed=0i,battery_remaining=99i,temperature=32767i,energy_consumed=0i,id=0i,current_battery=14i,time_remaining=0i 1732248885304332819
attitude,host=chris-ubuntu time_boot_ms=8333i,roll=0.026396024972200394,pitch=0.014153605327010155,yaw=-0.0017087699379771948,rollspeed=0.001343063428066671,pitchspeed=0.0014830764848738909,yawspeed=0.0015752045437693596 1732248885524384150
global_position_int,host=chris-ubuntu vx=0i,vy=0i,hdg=35991i,lat=0i,lon=0i,alt=-390i,relative_alt=-397i,vz=0i,time_boot_ms=8333i 1732248885524481710
sys_status,host=chris-ubuntu errors_count1=0i,errors_count3=0i,errors_comm=0i,errors_count4=0i,drop_rate_comm=0i,errors_count2=0i,load=30i,voltage_battery=3i,current_battery=14i,battery_remaining=99i 1732248885524659211
power_status,host=chris-ubuntu vcc=0i,vservo=0i 1732248885524700322
meminfo,host=chris-ubuntu brkval=0i,freemem=65535i,freemem32=66744i 1732248885524741382
mission_current,host=chris-ubuntu rally_points_id=0i,seq=0i,total=0i,mission_mode=0i,mission_id=0i,fence_id=0i 1732248885524803062
vfr_hud,host=chris-ubuntu alt=-0.38999998569488525,climb=-0,airspeed=0,groundspeed=0,heading=359i,throttle=0i 1732248885524858463
servo_output_raw,host=chris-ubuntu time_usec=8334188i,servo14_raw=0i,servo9_raw=0i,servo11_raw=0i,servo12_raw=0i,servo2_raw=0i,servo3_raw=1500i,servo5_raw=1500i,servo4_raw=1500i,servo6_raw=0i,servo7_raw=0i,servo10_raw=0i,servo13_raw=0i,servo15_raw=0i,servo16_raw=0i,port=0i,servo1_raw=0i,servo8_raw=0i 1732248885524979834
rc_channels,host=chris-ubuntu chan11_raw=0i,chan12_raw=0i,chancount=0i,chan1_raw=0i,chan2_raw=0i,chan6_raw=0i,chan17_raw=0i,time_boot_ms=8334i,chan8_raw=0i,chan10_raw=0i,chan13_raw=0i,chan14_raw=0i,chan18_raw=0i,rssi=0i,chan3_raw=0i,chan4_raw=0i,chan5_raw=0i,chan7_raw=0i,chan9_raw=0i,chan15_raw=0i,chan16_raw=0i 1732248885525113314
raw_imu,host=chris-ubuntu time_usec=8334284i,xacc=13i,xgyro=0i,zgyro=1i,xmag=0i,ymag=0i,zmag=0i,id=0i,temperature=2695i,yacc=19i,zacc=-1015i,ygyro=0i 1732248885525189415
scaled_pressure,host=chris-ubuntu time_boot_ms=8334i,press_abs=994.8368530273438,press_diff=0,temperature=2397i,temperature_press_diff=0i 1732248885525239655
gps_raw_int,host=chris-ubuntu cog=0i,hacc=0i,vacc=0i,yaw=0i,lon=0i,vel=0i,alt_ellipsoid=0i,vel_acc=0i,hdg_acc=0i,lat=0i,time_usec=0i,alt=0i,eph=65535i,epv=65535i,satellites_visible=0i 1732248885525335726
system_time,host=chris-ubuntu time_unix_usec=0i,time_boot_ms=8334i 1732248885525369066
ahrs,host=chris-ubuntu omegaiy=0,omegaiz=0,accel_weight=0,renorm_val=0,error_rp=0.4102718234062195,error_yaw=1,omegaix=0 1732248885525446067
hwstatus,host=chris-ubuntu vcc=0i,i2cerr=0i 1732248885543855200
vibration,host=chris-ubuntu clipping_2=0i,time_usec=8354193i,vibration_x=0.020523956045508385,vibration_y=0.0282744113355875,vibration_z=0.0322427973151207,clipping_0=0i,clipping_1=0i 1732248885543962741
battery_status,host=chris-ubuntu energy_consumed=0i,time_remaining=0i,id=0i,temperature=32767i,current_consumed=0i,battery_remaining=99i,current_battery=14i 1732248885544111162
statustext,host=chris-ubuntu text="EKF3 IMU0 buffs IMU=19 OBS=7 OF=17 EN:17 dt=0.0200",id=0i,chunk_seq=0i 1732248885583804358
heartbeat,host=chris-ubuntu custom_mode=0i,mavlink_version=3i 1732248885742814410
rc_channels_scaled,host=chris-ubuntu chan4_scaled=0i,chan7_scaled=0i,chan8_scaled=0i,rssi=0i,port=0i,chan2_scaled=0i,chan3_scaled=0i,chan5_scaled=0i,chan6_scaled=0i,time_boot_ms=8554i,chan1_scaled=0i 1732248885742936591
attitude,host=chris-ubuntu pitchspeed=-0.0023582042194902897,yawspeed=-0.00030391381005756557,time_boot_ms=8594i,roll=0.026606790721416473,pitch=0.013941719196736813,yaw=-0.0016148216091096401,rollspeed=-0.000918493780773133 1732248885783637383
global_position_int,host=chris-ubuntu time_boot_ms=8594i,lon=0i,vy=0i,vz=0i,lat=0i,alt=-370i,relative_alt=-370i,vx=0i,hdg=35991i 1732248885783706183
sys_status,host=chris-ubuntu load=33i,errors_count2=0i,errors_count3=0i,errors_count1=0i,errors_comm=0i,voltage_battery=3i,current_battery=14i,battery_remaining=99i,drop_rate_comm=0i,errors_count4=0i 1732248885783928705
power_status,host=chris-ubuntu vcc=0i,vservo=0i 1732248885783984785
meminfo,host=chris-ubuntu brkval=0i,freemem=58216i,freemem32=58216i 1732248885784048735
mission_current,host=chris-ubuntu seq=0i,total=0i,mission_mode=0i,mission_id=0i,fence_id=0i,rally_points_id=0i 1732248885784113236
vfr_hud,host=chris-ubuntu airspeed=0,groundspeed=0,heading=359i,throttle=0i,alt=-0.3700000047683716,climb=-0 1732248885784175266
servo_output_raw,host=chris-ubuntu servo4_raw=1500i,servo9_raw=0i,servo13_raw=0i,servo14_raw=0i,servo16_raw=0i,servo5_raw=1500i,servo6_raw=0i,servo12_raw=0i,servo3_raw=1500i,servo11_raw=0i,servo8_raw=0i,servo10_raw=0i,servo15_raw=0i,time_usec=8594929i,port=0i,servo1_raw=0i,servo2_raw=0i,servo7_raw=0i 1732248885784296857
rc_channels,host=chris-ubuntu chan15_raw=0i,chancount=0i,chan3_raw=0i,chan4_raw=0i,chan6_raw=0i,chan9_raw=0i,chan11_raw=0i,chan13_raw=0i,chan5_raw=0i,chan12_raw=0i,chan1_raw=0i,chan8_raw=0i,chan16_raw=0i,chan18_raw=0i,rssi=0i,time_boot_ms=8594i,chan2_raw=0i,chan7_raw=0i,chan10_raw=0i,chan14_raw=0i,chan17_raw=0i 1732248885784434468
raw_imu,host=chris-ubuntu yacc=19i,zacc=-1014i,ygyro=-1i,xmag=0i,ymag=0i,temperature=2698i,time_usec=8595018i,xacc=15i,xgyro=0i,zgyro=0i,zmag=0i,id=0i 1732248885784516228
scaled_pressure,host=chris-ubuntu time_boot_ms=8613i,press_abs=994.833740234375,press_diff=0,temperature=2399i,temperature_press_diff=0i 1732248885803540146
gps_raw_int,host=chris-ubuntu alt=0i,hacc=0i,hdg_acc=0i,vel=0i,cog=0i,alt_ellipsoid=0i,vel_acc=0i,yaw=0i,time_usec=0i,lat=0i,lon=0i,eph=65535i,satellites_visible=0i,vacc=0i,epv=65535i 1732248885803664707
system_time,host=chris-ubuntu time_unix_usec=0i,time_boot_ms=8614i 1732248885803710547
ahrs,host=chris-ubuntu omegaix=0,omegaiy=0,omegaiz=0,accel_weight=0,renorm_val=0,error_rp=0.32824936509132385,error_yaw=1 1732248885803773507
hwstatus,host=chris-ubuntu vcc=0i,i2cerr=0i 1732248885803819278
ekf_status_report,host=chris-ubuntu compass_variance=0,terrain_alt_variance=0,airspeed_variance=0,velocity_variance=0,pos_horiz_variance=0,pos_vert_variance=0 1732248885803892158
vibration,host=chris-ubuntu vibration_x=0.02582128904759884,vibration_y=0.036418452858924866,vibration_z=0.033950451761484146,clipping_0=0i,clipping_1=0i,clipping_2=0i,time_usec=8614528i 1732248885803969069
battery_status,host=chris-ubuntu current_battery=14i,battery_remaining=99i,energy_consumed=0i,time_remaining=0i,temperature=32767i,current_consumed=0i,id=0i 1732248885804081630
attitude,host=chris-ubuntu rollspeed=-0.0013143200194463134,pitchspeed=0.0004254436062183231,yawspeed=0.0004976222990080714,time_boot_ms=8833i,roll=0.02612731233239174,pitch=0.013761607930064201,yaw=-0.0014941833214834332 1732248886023065152
global_position_int,host=chris-ubuntu vy=0i,hdg=35992i,lon=0i,relative_alt=-451i,vx=0i,vz=0i,time_boot_ms=8834i,lat=0i,alt=-450i 1732248886023141893
sys_status,host=chris-ubuntu battery_remaining=99i,errors_count2=0i,load=33i,errors_comm=0i,current_battery=14i,drop_rate_comm=0i,errors_count1=0i,errors_count3=0i,errors_count4=0i,voltage_battery=2i 1732248886023322074
power_status,host=chris-ubuntu vcc=0i,vservo=0i 1732248886023363844
meminfo,host=chris-ubuntu freemem32=58216i,brkval=0i,freemem=58216i 1732248886023407364
mission_current,host=chris-ubuntu mission_mode=0i,mission_id=0i,fence_id=0i,rally_points_id=0i,seq=0i,total=0i 1732248886023462645
vfr_hud,host=chris-ubuntu airspeed=0,groundspeed=0,heading=359i,throttle=0i,alt=-0.44999998807907104,climb=-0 1732248886023509515
servo_output_raw,host=chris-ubuntu servo16_raw=0i,servo1_raw=0i,servo8_raw=0i,servo15_raw=0i,servo10_raw=0i,servo12_raw=0i,servo14_raw=0i,time_usec=8834286i,servo2_raw=0i,servo11_raw=0i,servo5_raw=1500i,servo6_raw=0i,servo7_raw=0i,servo9_raw=0i,servo13_raw=0i,port=0i,servo3_raw=1500i,servo4_raw=1500i 1732248886023635686
rc_channels,host=chris-ubuntu chan7_raw=0i,chan12_raw=0i,chan15_raw=0i,chan18_raw=0i,chancount=0i,chan14_raw=0i,chan13_raw=0i,chan1_raw=0i,chan2_raw=0i,chan3_raw=0i,chan4_raw=0i,time_boot_ms=8834i,chan6_raw=0i,chan8_raw=0i,chan9_raw=0i,chan10_raw=0i,chan11_raw=0i,chan16_raw=0i,chan17_raw=0i,chan5_raw=0i,rssi=0i 1732248886023797297
raw_imu,host=chris-ubuntu xgyro=-1i,ygyro=0i,time_usec=8834375i,xacc=14i,zgyro=0i,xmag=0i,ymag=0i,zmag=0i,id=0i,temperature=2701i,yacc=20i,zacc=-1015i 1732248886023882178
scaled_pressure,host=chris-ubuntu press_diff=0,temperature=2400i,temperature_press_diff=0i,time_boot_ms=8834i,press_abs=994.8429565429688 1732248886023958748
gps_raw_int,host=chris-ubuntu vel=0i,hdg_acc=0i,hacc=0i,vacc=0i,time_usec=0i,lat=0i,lon=0i,epv=65535i,cog=0i,alt=0i,eph=65535i,yaw=0i,satellites_visible=0i,alt_ellipsoid=0i,vel_acc=0i 1732248886024093279
system_time,host=chris-ubuntu time_unix_usec=0i,time_boot_ms=8834i 1732248886024135409
ahrs,host=chris-ubuntu omegaiy=0,omegaiz=0,accel_weight=0,renorm_val=0,error_rp=0.2626883387565613,error_yaw=1,omegaix=0 1732248886024228080
hwstatus,host=chris-ubuntu vcc=0i,i2cerr=0i 1732248886043802151
ekf_status_report,host=chris-ubuntu compass_variance=0,terrain_alt_variance=0,airspeed_variance=0,velocity_variance=0,pos_horiz_variance=0,pos_vert_variance=0 1732248886043849251
vibration,host=chris-ubuntu vibration_y=0.026353340595960617,vibration_z=0.03557795286178589,clipping_0=0i,clipping_1=0i,clipping_2=0i,time_usec=8854286i,vibration_x=0.02326798439025879 1732248886043895612
battery_status,host=chris-ubuntu current_battery=14i,battery_remaining=99i,time_remaining=0i,id=0i,temperature=32767i,current_consumed=0i,energy_consumed=0i 1732248886043961952
heartbeat,host=chris-ubuntu custom_mode=4i,mavlink_version=3i 1732248886082767541
statustext,host=chris-ubuntu text="Radio Failsafe",id=0i,chunk_seq=0i 1732248886082849462
attitude,host=chris-ubuntu yawspeed=0.0010529294377192855,time_boot_ms=9093i,roll=0.025804726406931877,pitch=0.013744046911597252,yaw=-0.0013857994927093387,rollspeed=-0.0009417266119271517,pitchspeed=-0.0003561176999937743 1732248886282883147
global_position_int,host=chris-ubuntu relative_alt=-642i,vx=0i,hdg=35993i,time_boot_ms=9094i,lat=0i,lon=0i,alt=-640i,vy=0i,vz=0i 1732248886282961898
sys_status,host=chris-ubuntu drop_rate_comm=0i,errors_count2=0i,errors_count4=0i,load=32i,current_battery=13i,errors_count3=0i,errors_count1=0i,voltage_battery=3i,battery_remaining=99i,errors_comm=0i 1732248886283120119
power_status,host=chris-ubuntu vcc=0i,vservo=0i 1732248886283162599
meminfo,host=chris-ubuntu brkval=0i,freemem=58200i,freemem32=58200i 1732248886283207439
mission_current,host=chris-ubuntu rally_points_id=0i,seq=0i,total=0i,mission_mode=0i,mission_id=0i,fence_id=0i 1732248886283266600
vfr_hud,host=chris-ubuntu groundspeed=0,heading=359i,throttle=0i,alt=-0.6399999856948853,climb=-0,airspeed=0 1732248886283320610
servo_output_raw,host=chris-ubuntu time_usec=9094281i,servo6_raw=0i,servo9_raw=0i,servo12_raw=0i,servo15_raw=0i,servo16_raw=0i,servo1_raw=0i,servo2_raw=0i,servo3_raw=1500i,servo4_raw=1500i,servo5_raw=1500i,servo8_raw=0i,servo10_raw=0i,servo11_raw=0i,servo13_raw=0i,port=0i,servo14_raw=0i,servo7_raw=0i 1732248886283445001
rc_channels,host=chris-ubuntu chancount=0i,chan11_raw=0i,chan17_raw=0i,chan7_raw=0i,chan18_raw=0i,chan1_raw=0i,chan4_raw=0i,chan6_raw=0i,chan8_raw=0i,chan15_raw=0i,chan16_raw=0i,rssi=0i,time_boot_ms=9094i,chan3_raw=0i,chan5_raw=0i,chan12_raw=0i,chan13_raw=0i,chan14_raw=0i,chan2_raw=0i,chan9_raw=0i,chan10_raw=0i 1732248886283558652
raw_imu,host=chris-ubuntu zacc=-1016i,xgyro=0i,ygyro=0i,zgyro=1i,ymag=0i,zmag=0i,id=0i,time_usec=9094441i,temperature=2703i,yacc=18i,xmag=0i,xacc=14i 1732248886283870594
scaled_pressure,host=chris-ubuntu press_diff=0,temperature=2403i,temperature_press_diff=0i,time_boot_ms=9094i,press_abs=994.864501953125 1732248886283931314
gps_raw_int,host=chris-ubuntu lon=0i,vel_acc=0i,hdg_acc=0i,time_usec=0i,lat=0i,vel=0i,hacc=0i,vacc=0i,epv=65535i,cog=0i,satellites_visible=0i,alt_ellipsoid=0i,alt=0i,eph=65535i,yaw=0i 1732248886284053005
system_time,host=chris-ubuntu time_unix_usec=0i,time_boot_ms=9094i 1732248886284088345
ahrs,host=chris-ubuntu omegaiy=0,omegaiz=0,accel_weight=0,renorm_val=0,error_rp=0.16841158270835876,error_yaw=1,omegaix=0 1732248886284178986
hwstatus,host=chris-ubuntu vcc=0i,i2cerr=0i 1732248886302931531
ekf_status_report,host=chris-ubuntu pos_horiz_variance=0,pos_vert_variance=0,compass_variance=0,terrain_alt_variance=0,airspeed_variance=0,velocity_variance=0 1732248886303007281
vibration,host=chris-ubuntu vibration_x=0.022118618711829185,vibration_y=0.03068995475769043,vibration_z=0.030878981575369835,clipping_0=0i,clipping_1=0i,clipping_2=0i,time_usec=9114166i 1732248886303065882
battery_status,host=chris-ubuntu time_remaining=0i,temperature=32767i,current_battery=13i,battery_remaining=99i,current_consumed=0i,id=0i,energy_consumed=0i 1732248886303215553
attitude,host=chris-ubuntu rollspeed=-0.00047945044934749603,pitchspeed=0.00014604409807361662,yawspeed=0.0004476634494494647,time_boot_ms=9333i,roll=0.026099516078829765,pitch=0.013618058525025845,yaw=-0.0012147087836638093 1732248886522516378
global_position_int,host=chris-ubuntu vz=0i,hdg=35994i,lat=0i,alt=-560i,relative_alt=-560i,vx=0i,vy=0i,time_boot_ms=9334i,lon=0i 1732248886522597428
sys_status,host=chris-ubuntu errors_count1=0i,errors_count3=0i,voltage_battery=3i,drop_rate_comm=0i,load=33i,errors_count2=0i,battery_remaining=99i,errors_comm=0i,errors_count4=0i,current_battery=14i 1732248886522745889
power_status,host=chris-ubuntu vcc=0i,vservo=0i 1732248886522781689
meminfo,host=chris-ubuntu brkval=0i,freemem=58736i,freemem32=58736i 1732248886522818210
mission_current,host=chris-ubuntu mission_id=0i,fence_id=0i,rally_points_id=0i,seq=0i,total=0i,mission_mode=0i 1732248886522872700
vfr_hud,host=chris-ubuntu airspeed=0,groundspeed=0,heading=359i,throttle=0i,alt=-0.5600000023841858,climb=-0 1732248886522922740
servo_output_raw,host=chris-ubuntu servo14_raw=0i,servo15_raw=0i,time_usec=9334245i,servo3_raw=1500i,servo5_raw=1500i,servo8_raw=0i,servo12_raw=0i,servo13_raw=0i,servo16_raw=0i,port=0i,servo1_raw=0i,servo2_raw=0i,servo4_raw=1500i,servo7_raw=0i,servo9_raw=0i,servo10_raw=0i,servo11_raw=0i,servo6_raw=0i 1732248886523046581
rc_channels,host=chris-ubuntu chan15_raw=0i,chan2_raw=0i,chan4_raw=0i,chan6_raw=0i,chan8_raw=0i,chan12_raw=0i,chancount=0i,chan1_raw=0i,chan3_raw=0i,chan9_raw=0i,chan16_raw=0i,chan5_raw=0i,chan10_raw=0i,chan13_raw=0i,chan14_raw=0i,rssi=0i,time_boot_ms=9334i,chan7_raw=0i,chan11_raw=0i,chan17_raw=0i,chan18_raw=0i 1732248886523180342
raw_imu,host=chris-ubuntu zacc=-1016i,xgyro=0i,ygyro=0i,zgyro=0i,xmag=0i,ymag=0i,id=0i,temperature=2705i,time_usec=9334338i,xacc=13i,yacc=21i,zmag=0i 1732248886523258382
scaled_pressure,host=chris-ubuntu time_boot_ms=9334i,press_abs=994.8555908203125,press_diff=0,temperature=2404i,temperature_press_diff=0i 1732248886523331233
gps_raw_int,host=chris-ubuntu lon=0i,hacc=0i,time_usec=0i,alt=0i,satellites_visible=0i,yaw=0i,lat=0i,epv=65535i,vel=0i,vacc=0i,vel_acc=0i,hdg_acc=0i,eph=65535i,cog=0i,alt_ellipsoid=0i 1732248886523457714
system_time,host=chris-ubuntu time_unix_usec=0i,time_boot_ms=9334i 1732248886523500794
ahrs,host=chris-ubuntu accel_weight=0,renorm_val=0,error_rp=0.1348903924226761,error_yaw=1,omegaix=0,omegaiy=0,omegaiz=0 1732248886523620685
hwstatus,host=chris-ubuntu vcc=0i,i2cerr=0i 1732248886542929123
ekf_status_report,host=chris-ubuntu pos_horiz_variance=0,pos_vert_variance=0,compass_variance=0,terrain_alt_variance=0,airspeed_variance=0,velocity_variance=0 1732248886542995434
vibration,host=chris-ubuntu vibration_y=0.02399187907576561,vibration_z=0.03102918155491352,clipping_0=0i,clipping_1=0i,clipping_2=0i,time_usec=9354246i,vibration_x=0.02027250826358795 1732248886543060674
battery_status,host=chris-ubuntu energy_consumed=0i,temperature=32767i,current_battery=14i,current_consumed=0i,battery_remaining=99i,time_remaining=0i,id=0i 1732248886543177455
statustext,host=chris-ubuntu chunk_seq=0i,text="EKF3 IMU0 initialised",id=0i 1732248886582945700
heartbeat,host=chris-ubuntu custom_mode=4i,mavlink_version=3i 1732248886741839122
rc_channels_scaled,host=chris-ubuntu chan2_scaled=0i,chan4_scaled=0i,chan6_scaled=0i,chan7_scaled=0i,chan8_scaled=0i,chan1_scaled=0i,port=0i,chan3_scaled=0i,chan5_scaled=0i,rssi=0i,time_boot_ms=9554i 1732248886741933353
attitude,host=chris-ubuntu pitchspeed=0.000026344323487137444,yawspeed=0.0006606851820833981,time_boot_ms=9594i,roll=0.026019476354122162,pitch=0.013458812609314919,yaw=-0.0010178984375670552,rollspeed=-0.00027668505208566785 1732248886782325453
global_position_int,host=chris-ubuntu lat=0i,lon=0i,relative_alt=-560i,vx=0i,vz=0i,hdg=35995i,time_boot_ms=9594i,alt=-560i,vy=0i 1732248886782373373
sys_status,host=chris-ubuntu errors_count3=0i,errors_count4=0i,current_battery=14i,battery_remaining=99i,load=39i,voltage_battery=2i,drop_rate_comm=0i,errors_count1=0i,errors_count2=0i,errors_comm=0i 1732248886782463204
power_status,host=chris-ubuntu vcc=0i,vservo=0i 1732248886782484324
meminfo,host=chris-ubuntu brkval=0i,freemem=58736i,freemem32=58736i 1732248886782507894
mission_current,host=chris-ubuntu mission_id=0i,fence_id=0i,rally_points_id=0i,seq=0i,total=0i,mission_mode=0i 1732248886782539354
vfr_hud,host=chris-ubuntu groundspeed=0,heading=359i,throttle=0i,alt=-0.5600000023841858,climb=-0,airspeed=0 1732248886782630335
servo_output_raw,host=chris-ubuntu port=0i,servo3_raw=1500i,servo6_raw=0i,servo10_raw=0i,servo11_raw=0i,time_usec=9594564i,servo1_raw=0i,servo5_raw=1500i,servo8_raw=0i,servo16_raw=0i,servo2_raw=0i,servo4_raw=1500i,servo12_raw=0i,servo13_raw=0i,servo14_raw=0i,servo7_raw=0i,servo9_raw=0i,servo15_raw=0i 1732248886782756446
rc_channels,host=chris-ubuntu chan14_raw=0i,chan18_raw=0i,chan8_raw=0i,chan2_raw=0i,chan3_raw=0i,chan4_raw=0i,chan6_raw=0i,chan12_raw=0i,chan17_raw=0i,chancount=0i,chan7_raw=0i,chan9_raw=0i,chan10_raw=0i,chan13_raw=0i,chan15_raw=0i,chan16_raw=0i,rssi=0i,time_boot_ms=9594i,chan5_raw=0i,chan11_raw=0i,chan1_raw=0i 1732248886782894177
raw_imu,host=chris-ubuntu xacc=13i,yacc=19i,zacc=-1013i,xgyro=0i,zgyro=0i,id=0i,temperature=2707i,time_usec=9594657i,ygyro=0i,xmag=0i,ymag=0i,zmag=0i 1732248886782973337
scaled_pressure,host=chris-ubuntu press_abs=994.85498046875,press_diff=0,temperature=2406i,temperature_press_diff=0i,time_boot_ms=9594i 1732248886783024448
gps_raw_int,host=chris-ubuntu eph=65535i,epv=65535i,yaw=0i,time_usec=0i,lat=0i,lon=0i,vel=0i,cog=0i,alt_ellipsoid=0i,hacc=0i,satellites_visible=0i,vel_acc=0i,alt=0i,vacc=0i,hdg_acc=0i 1732248886783123968
system_time,host=chris-ubuntu time_unix_usec=0i,time_boot_ms=9594i 1732248886783158538
ahrs,host=chris-ubuntu error_rp=0.10810180753469467,error_yaw=1,omegaix=0,omegaiy=0,omegaiz=0,accel_weight=0,renorm_val=0 1732248886802863960
ahrs2,host=chris-ubuntu altitude=0,lat=0i,lng=0i,roll=0.025509063154459,pitch=0.013051025569438934,yaw=0.0001665878517087549 1732248886802902860
hwstatus,host=chris-ubuntu vcc=0i,i2cerr=0i 1732248886802930090
ekf_status_report,host=chris-ubuntu compass_variance=0,terrain_alt_variance=0,airspeed_variance=0,velocity_variance=0,pos_horiz_variance=0,pos_vert_variance=0 1732248886802992600
vibration,host=chris-ubuntu vibration_x=0.021606871858239174,vibration_y=0.027853548526763916,vibration_z=0.029795458540320396,clipping_0=0i,clipping_1=0i,clipping_2=0i,time_usec=9614751i 1732248886803053521
battery_status,host=chris-ubuntu temperature=32767i,current_consumed=0i,energy_consumed=0i,battery_remaining=99i,id=0i,current_battery=14i,time_remaining=0i 1732248886803176792
attitude,host=chris-ubuntu yawspeed=0.0006938789738342166,time_boot_ms=9834i,roll=0.02573324739933014,pitch=0.013524939306080341,yaw=-0.0010170798050239682,rollspeed=0.0005781346117146313,pitchspeed=-0.000625570653937757 1732248887022088593
global_position_int,host=chris-ubuntu time_boot_ms=9834i,lon=0i,alt=-500i,relative_alt=-501i,vy=0i,vz=0i,lat=0i,vx=0i,hdg=35995i 1732248887022156654
sys_status,host=chris-ubuntu current_battery=14i,drop_rate_comm=0i,errors_count1=0i,errors_count3=0i,voltage_battery=1i,errors_count2=0i,errors_count4=0i,load=44i,battery_remaining=99i,errors_comm=0i 1732248887022285724
power_status,host=chris-ubuntu vcc=0i,vservo=0i 1732248887022319435
meminfo,host=chris-ubuntu brkval=0i,freemem=58736i,freemem32=58736i 1732248887022354765
mission_current,host=chris-ubuntu seq=0i,total=0i,mission_mode=0i,mission_id=0i,fence_id=0i,rally_points_id=0i 1732248887022403075
vfr_hud,host=chris-ubuntu alt=-0.5,climb=-0,airspeed=0,groundspeed=0,heading=359i,throttle=0i 1732248887022451066
servo_output_raw,host=chris-ubuntu servo4_raw=1500i,servo6_raw=0i,servo11_raw=0i,servo12_raw=0i,time_usec=9834596i,servo2_raw=0i,servo3_raw=1500i,servo9_raw=0i,servo10_raw=0i,servo16_raw=0i,servo5_raw=1500i,servo7_raw=0i,servo14_raw=0i,servo15_raw=0i,port=0i,servo1_raw=0i,servo8_raw=0i,servo13_raw=0i 1732248887022559106
rc_channels,host=chris-ubuntu time_boot_ms=9834i,chan4_raw=0i,chan11_raw=0i,chan13_raw=0i,chan18_raw=0i,chan9_raw=0i,chan10_raw=0i,chancount=0i,chan1_raw=0i,chan2_raw=0i,chan3_raw=0i,chan5_raw=0i,chan8_raw=0i,chan15_raw=0i,chan16_raw=0i,chan17_raw=0i,chan6_raw=0i,chan14_raw=0i,chan7_raw=0i,chan12_raw=0i,rssi=0i 1732248887022674047
raw_imu,host=chris-ubuntu zmag=0i,id=0i,temperature=2709i,yacc=19i,zacc=-1015i,zgyro=0i,xmag=0i,ymag=0i,time_usec=9834693i,xacc=11i,xgyro=0i,ygyro=0i 1732248887022809638
scaled_pressure,host=chris-ubuntu time_boot_ms=9834i,press_abs=994.8487548828125,press_diff=0,temperature=2407i,temperature_press_diff=0i 1732248887022857788
gps_raw_int,host=chris-ubuntu lat=0i,vel=0i,vacc=0i,vel_acc=0i,hacc=0i,lon=0i,alt=0i,eph=65535i,alt_ellipsoid=0i,cog=0i,time_usec=0i,epv=65535i,satellites_visible=0i,hdg_acc=0i,yaw=0i 1732248887022951899
system_time,host=chris-ubuntu time_boot_ms=9834i,time_unix_usec=0i 1732248887022990879
ahrs,host=chris-ubuntu renorm_val=0,error_rp=0.08653534203767776,error_yaw=1,omegaix=0,omegaiy=0,omegaiz=0,accel_weight=0 1732248887042826782
ahrs2,host=chris-ubuntu roll=0.025434058159589767,pitch=0.012975996360182762,yaw=0.00016725868044886738,altitude=0,lat=0i,lng=0i 1732248887042883782
hwstatus,host=chris-ubuntu vcc=0i,i2cerr=0i 1732248887042976753
ekf_status_report,host=chris-ubuntu airspeed_variance=0,velocity_variance=0,pos_horiz_variance=0.000010903474503720645,pos_vert_variance=0.020404012873768806,compass_variance=0,terrain_alt_variance=0 1732248887061846849
vibration,host=chris-ubuntu time_usec=9874338i,vibration_x=0.02146729826927185,vibration_y=0.025000926107168198,vibration_z=0.027216458693146706,clipping_0=0i,clipping_1=0i,clipping_2=0i 1732248887061902959
battery_status,host=chris-ubuntu energy_consumed=0i,temperature=32767i,current_battery=13i,current_consumed=0i,time_remaining=0i,id=0i,battery_remaining=99i 1732248887061974959
timesync,host=chris-ubuntu tc1=0i,ts1=10014187001i,target_system=0i,target_component=0i 1732248887201752501
attitude,host=chris-ubuntu rollspeed=-0.0006923156906850636,pitchspeed=-0.00041596079245209694,yawspeed=0.0004609945463016629,time_boot_ms=10094i,roll=0.02569051831960678,pitch=0.013430358842015266,yaw=-0.0009894714457914233 1732248887281769636
global_position_int,host=chris-ubuntu vz=0i,hdg=35995i,time_boot_ms=10094i,lat=0i,alt=-520i,vx=0i,vy=0i,lon=0i,relative_alt=-528i 1732248887281898537
sys_status,host=chris-ubuntu errors_count3=0i,voltage_battery=3i,battery_remaining=99i,drop_rate_comm=0i,errors_count2=0i,errors_comm=0i,errors_count1=0i,errors_count4=0i,load=47i,current_battery=14i 1732248887282018208
power_status,host=chris-ubuntu vcc=0i,vservo=0i 1732248887282049488
meminfo,host=chris-ubuntu freemem32=58736i,brkval=0i,freemem=58736i 1732248887282087148
mission_current,host=chris-ubuntu seq=0i,total=0i,mission_mode=0i,mission_id=0i,fence_id=0i,rally_points_id=0i 1732248887282129739
vfr_hud,host=chris-ubuntu airspeed=0,groundspeed=0,heading=359i,throttle=0i,alt=-0.5199999809265137,climb=-0 1732248887282172539
servo_output_raw,host=chris-ubuntu servo3_raw=1500i,servo8_raw=0i,servo13_raw=0i,servo15_raw=0i,servo16_raw=0i,servo4_raw=1500i,servo10_raw=0i,servo11_raw=0i,servo12_raw=0i,port=0i,servo5_raw=1500i,servo6_raw=0i,time_usec=10094876i,servo1_raw=0i,servo2_raw=0i,servo7_raw=0i,servo9_raw=0i,servo14_raw=0i 1732248887282272440
rc_channels,host=chris-ubuntu time_boot_ms=10094i,chan4_raw=0i,chan10_raw=0i,chan14_raw=0i,chan18_raw=0i,rssi=0i,chan6_raw=0i,chan7_raw=0i,chan8_raw=0i,chan9_raw=0i,chan11_raw=0i,chan12_raw=0i,chan15_raw=0i,chan17_raw=0i,chancount=0i,chan1_raw=0i,chan2_raw=0i,chan3_raw=0i,chan5_raw=0i,chan13_raw=0i,chan16_raw=0i 1732248887282382360
raw_imu,host=chris-ubuntu zmag=0i,temperature=2711i,time_usec=10094965i,xacc=12i,zacc=-1013i,ygyro=0i,zgyro=0i,yacc=20i,xgyro=0i,xmag=0i,ymag=0i,id=0i 1732248887282851903
scaled_pressure,host=chris-ubuntu press_abs=994.851318359375,press_diff=0,temperature=2409i,temperature_press_diff=0i,time_boot_ms=10114i 1732248887301756730
sensor_offsets,host=chris-ubuntu accel_cal_y=-0.3282260596752167,accel_cal_z=1.4000604152679443,mag_ofs_y=0i,mag_ofs_z=0i,mag_declination=0,gyro_cal_x=-0.02380811795592308,gyro_cal_z=0.0028879751916974783,accel_cal_x=-0.05748388543725014,mag_ofs_x=0i,raw_press=99485i,raw_temp=2409i,gyro_cal_y=-0.004888513591140509 1732248887301856260
gps_raw_int,host=chris-ubuntu lon=0i,alt=0i,hacc=0i,cog=0i,satellites_visible=0i,alt_ellipsoid=0i,vacc=0i,yaw=0i,lat=0i,eph=65535i,vel=0i,time_usec=0i,epv=65535i,vel_acc=0i,hdg_acc=0i 1732248887301966121
system_time,host=chris-ubuntu time_unix_usec=0i,time_boot_ms=10114i 1732248887302005031
ahrs,host=chris-ubuntu omegaiz=0,accel_weight=0,renorm_val=0,error_rp=0.06930474936962128,error_yaw=1,omegaix=0,omegaiy=0 1732248887302070112
ahrs2,host=chris-ubuntu roll=0.025393391028046608,pitch=0.01292056031525135,yaw=0.00021361358813010156,altitude=0,lat=0i,lng=0i 1732248887302120572
hwstatus,host=chris-ubuntu vcc=0i,i2cerr=0i 1732248887302159612
ekf_status_report,host=chris-ubuntu velocity_variance=0,pos_horiz_variance=0.00008983188308775425,pos_vert_variance=0.0019510203273966908,compass_variance=0,terrain_alt_variance=0,airspeed_variance=0 1732248887302226613
vibration,host=chris-ubuntu vibration_z=0.03535396233201027,clipping_0=0i,clipping_1=0i,clipping_2=0i,time_usec=10114911i,vibration_x=0.019410282373428345,vibration_y=0.021327998489141464 1732248887302771607
battery_status,host=chris-ubuntu temperature=32767i,battery_remaining=99i,id=0i,current_consumed=0i,energy_consumed=0i,time_remaining=0i,current_battery=14i 1732248887302876657
attitude,host=chris-ubuntu rollspeed=0.00654267193749547,pitchspeed=-0.0005621662130579352,yawspeed=-0.3651663064956665,time_boot_ms=10334i,roll=0.025724034756422043,pitch=0.012786481529474258,yaw=-0.02854669839143753 1732248887521517615
global_position_int,host=chris-ubuntu time_boot_ms=10334i,lat=0i,relative_alt=-658i,vz=0i,hdg=35837i,lon=0i,alt=-650i,vx=0i,vy=0i 1732248887521611966
sys_status,host=chris-ubuntu voltage_battery=2i,errors_count1=0i,errors_count2=0i,battery_remaining=99i,drop_rate_comm=0i,errors_comm=0i,errors_count4=0i,load=50i,current_battery=14i,errors_count3=0i 1732248887521801287
power_status,host=chris-ubuntu vcc=0i,vservo=0i 1732248887521847867
meminfo,host=chris-ubuntu brkval=0i,freemem=58736i,freemem32=58736i 1732248887521903508
mission_current,host=chris-ubuntu seq=0i,total=0i,mission_mode=0i,mission_id=0i,fence_id=0i,rally_points_id=0i 1732248887521978928
vfr_hud,host=chris-ubuntu climb=-0,airspeed=0,groundspeed=0,heading=358i,throttle=0i,alt=-0.6499999761581421 1732248887522044869
servo_output_raw,host=chris-ubuntu time_usec=10334631i,port=0i,servo6_raw=0i,servo7_raw=0i,servo12_raw=0i,servo13_raw=0i,servo14_raw=0i,servo16_raw=0i,servo2_raw=0i,servo5_raw=1500i,servo8_raw=0i,servo10_raw=0i,servo11_raw=0i,servo3_raw=1500i,servo4_raw=1500i,servo9_raw=0i,servo15_raw=0i,servo1_raw=0i 1732248887522194920
rc_channels,host=chris-ubuntu chancount=0i,chan2_raw=0i,chan3_raw=0i,chan6_raw=0i,chan8_raw=0i,chan11_raw=0i,chan12_raw=0i,time_boot_ms=10334i,chan1_raw=0i,chan7_raw=0i,chan13_raw=0i,chan15_raw=0i,chan17_raw=0i,chan18_raw=0i,chan9_raw=0i,chan10_raw=0i,chan16_raw=0i,rssi=0i,chan4_raw=0i,chan5_raw=0i,chan14_raw=0i 1732248887522368091
raw_imu,host=chris-ubuntu xgyro=4i,zgyro=-227i,xmag=0i,temperature=2714i,yacc=12i,xacc=18i,zacc=-1014i,ygyro=0i,ymag=0i,zmag=0i,id=0i,time_usec=10334720i 1732248887522467281
scaled_pressure,host=chris-ubuntu time_boot_ms=10334i,press_abs=994.8666381835938,press_diff=0,temperature=2411i,temperature_press_diff=0i 1732248887522532172
gps_raw_int,host=chris-ubuntu eph=65535i,vel=0i,cog=0i,alt_ellipsoid=0i,hacc=0i,vacc=0i,vel_acc=0i,yaw=0i,alt=0i,epv=65535i,time_usec=0i,lat=0i,lon=0i,satellites_visible=0i,hdg_acc=0i 1732248887522645543
system_time,host=chris-ubuntu time_unix_usec=0i,time_boot_ms=10354i 1732248887542834708
ahrs,host=chris-ubuntu omegaiy=0,omegaiz=0,accel_weight=0,renorm_val=0,error_rp=0.05552028492093086,error_yaw=1,omegaix=0 1732248887542897758
ahrs2,host=chris-ubuntu roll=0.025686193257570267,pitch=0.012143472209572792,yaw=-0.035545602440834045,altitude=0,lat=0i,lng=0i 1732248887542961189
hwstatus,host=chris-ubuntu vcc=0i,i2cerr=0i 1732248887542993629
ekf_status_report,host=chris-ubuntu pos_horiz_variance=0.00017799215856939554,pos_vert_variance=0.0008674535783939064,compass_variance=0,terrain_alt_variance=0,airspeed_variance=0,velocity_variance=0 1732248887543070910
vibration,host=chris-ubuntu clipping_0=0i,clipping_1=0i,clipping_2=0i,time_usec=10355120i,vibration_x=0.06549134850502014,vibration_y=0.07978910207748413,vibration_z=0.09331545978784561 1732248887543129790
battery_status,host=chris-ubuntu energy_consumed=0i,time_remaining=0i,id=0i,current_battery=14i,battery_remaining=99i,temperature=32767i,current_consumed=0i 1732248887543276981
heartbeat,host=chris-ubuntu custom_mode=4i,mavlink_version=3i 1732248887741819805
rc_channels_scaled,host=chris-ubuntu time_boot_ms=10554i,chan2_scaled=0i,chan6_scaled=0i,chan8_scaled=0i,rssi=0i,chan7_scaled=0i,port=0i,chan1_scaled=0i,chan3_scaled=0i,chan4_scaled=0i,chan5_scaled=0i 1732248887741912446
attitude,host=chris-ubuntu time_boot_ms=10594i,roll=0.028094878420233727,pitch=0.013002739287912846,yaw=-0.09152273088693619,rollspeed=0.00015904051542747766,pitchspeed=-0.00027297838823869824,yawspeed=0.0006672051968052983 1732248887781112647
global_position_int,host=chris-ubuntu time_boot_ms=10594i,lat=0i,relative_alt=-544i,hdg=35476i,lon=0i,alt=-540i,vx=0i,vy=0i,vz=0i 1732248887781202018
sys_status,host=chris-ubuntu load=52i,voltage_battery=2i,current_battery=14i,errors_count2=0i,errors_count3=0i,errors_count4=0i,battery_remaining=99i,drop_rate_comm=0i,errors_comm=0i,errors_count1=0i 1732248887781367579
power_status,host=chris-ubuntu vcc=0i,vservo=0i 1732248887781409209
meminfo,host=chris-ubuntu brkval=0i,freemem=58736i,freemem32=58736i 1732248887781461479
mission_current,host=chris-ubuntu mission_id=0i,fence_id=0i,rally_points_id=0i,seq=0i,total=0i,mission_mode=0i 1732248887781528180
vfr_hud,host=chris-ubuntu heading=354i,throttle=0i,alt=-0.5399999618530273,climb=-0,airspeed=0,groundspeed=0 1732248887781590830
servo_output_raw,host=chris-ubuntu servo5_raw=1500i,servo7_raw=0i,servo9_raw=0i,servo10_raw=0i,servo13_raw=0i,servo15_raw=0i,port=0i,servo1_raw=0i,servo8_raw=0i,servo12_raw=0i,servo14_raw=0i,time_usec=10594668i,servo6_raw=0i,servo11_raw=0i,servo16_raw=0i,servo2_raw=0i,servo3_raw=1500i,servo4_raw=1500i 1732248887781726721
rc_channels,host=chris-ubuntu chan3_raw=0i,chan5_raw=0i,chan7_raw=0i,chan14_raw=0i,chan15_raw=0i,chan2_raw=0i,chan8_raw=0i,chan9_raw=0i,chancount=0i,chan1_raw=0i,chan4_raw=0i,chan6_raw=0i,chan10_raw=0i,chan16_raw=0i,rssi=0i,time_boot_ms=10594i,chan11_raw=0i,chan12_raw=0i,chan13_raw=0i,chan17_raw=0i,chan18_raw=0i 1732248887781882662
raw_imu,host=chris-ubuntu temperature=2717i,time_usec=10594841i,zacc=-1015i,zgyro=-99i,ymag=0i,id=0i,zmag=0i,xacc=9i,yacc=23i,xgyro=1i,ygyro=0i,xmag=0i 1732248887781972283
scaled_pressure,host=chris-ubuntu press_abs=994.853271484375,press_diff=0,temperature=2411i,temperature_press_diff=0i,time_boot_ms=10594i 1732248887782033093
gps_raw_int,host=chris-ubuntu alt=0i,satellites_visible=0i,vacc=0i,lat=0i,epv=65535i,hdg_acc=0i,vel_acc=0i,lon=0i,cog=0i,hacc=0i,vel=0i,alt_ellipsoid=0i,yaw=0i,time_usec=0i,eph=65535i 1732248887782143084
system_time,host=chris-ubuntu time_unix_usec=0i,time_boot_ms=10614i 1732248887801858856
ahrs,host=chris-ubuntu error_yaw=1,omegaix=0,omegaiy=0,omegaiz=0,accel_weight=0,renorm_val=0,error_rp=0.03805353492498398 1732248887801938336
ahrs2,host=chris-ubuntu roll=0.026152487844228745,pitch=0.011042148806154728,yaw=-0.0903540849685669,altitude=0,lat=0i,lng=0i 1732248887801999837
hwstatus,host=chris-ubuntu i2cerr=0i,vcc=0i 1732248887802052807
ekf_status_report,host=chris-ubuntu airspeed_variance=0,velocity_variance=0,pos_horiz_variance=0.00019865827925968915,pos_vert_variance=0.009599048644304276,compass_variance=0,terrain_alt_variance=0 1732248887802135157
vibration,host=chris-ubuntu vibration_x=0.07510581612586975,vibration_y=0.09234665334224701,vibration_z=0.09788677841424942,clipping_0=0i,clipping_1=0i,clipping_2=0i,time_usec=10614673i 1732248887802229278
battery_status,host=chris-ubuntu energy_consumed=0i,battery_remaining=99i,current_battery=14i,id=0i,temperature=32767i,current_consumed=0i,time_remaining=0i 1732248887802350599
attitude,host=chris-ubuntu yawspeed=0.0005640790914185345,time_boot_ms=10834i,roll=0.02597992494702339,pitch=0.011370130814611912,yaw=-0.0914025604724884,rollspeed=-0.0011379303177818656,pitchspeed=-0.0005257085431367159 1732248888020919826
global_position_int,host=chris-ubuntu vx=0i,vy=0i,lat=0i,alt=-560i,relative_alt=-566i,vz=0i,hdg=35477i,time_boot_ms=10834i,lon=0i 1732248888020995667
sys_status,host=chris-ubuntu voltage_battery=2i,current_battery=14i,drop_rate_comm=0i,errors_count3=0i,errors_count2=0i,errors_count4=0i,errors_count1=0i,load=53i,errors_comm=0i,battery_remaining=99i 1732248888021202478
power_status,host=chris-ubuntu vcc=0i,vservo=0i 1732248888021248638
meminfo,host=chris-ubuntu brkval=0i,freemem=58736i,freemem32=58736i 1732248888021299909
mission_current,host=chris-ubuntu mission_id=0i,fence_id=0i,rally_points_id=0i,seq=0i,total=0i,mission_mode=0i 1732248888021367239
vfr_hud,host=chris-ubuntu airspeed=0,groundspeed=0,heading=354i,throttle=0i,alt=-0.5600000023841858,climb=-0 1732248888021427810
servo_output_raw,host=chris-ubuntu servo11_raw=0i,servo12_raw=0i,servo14_raw=0i,port=0i,servo1_raw=0i,servo8_raw=0i,servo16_raw=0i,servo5_raw=1500i,servo7_raw=0i,servo10_raw=0i,servo9_raw=0i,servo15_raw=0i,servo2_raw=0i,servo4_raw=1500i,servo6_raw=0i,time_usec=10834628i,servo3_raw=1500i,servo13_raw=0i 1732248888021557640
rc_channels,host=chris-ubuntu chan16_raw=0i,time_boot_ms=10834i,chan2_raw=0i,chan4_raw=0i,chan5_raw=0i,chan9_raw=0i,chan10_raw=0i,chan12_raw=0i,chan18_raw=0i,chan14_raw=0i,rssi=0i,chancount=0i,chan1_raw=0i,chan6_raw=0i,chan11_raw=0i,chan15_raw=0i,chan3_raw=0i,chan7_raw=0i,chan8_raw=0i,chan13_raw=0i,chan17_raw=0i 1732248888021701691
raw_imu,host=chris-ubuntu xgyro=0i,xmag=0i,ymag=0i,zmag=0i,id=0i,temperature=2719i,yacc=20i,zacc=-1014i,ygyro=0i,zgyro=0i,time_usec=10834717i,xacc=13i 1732248888021821112
scaled_pressure,host=chris-ubuntu temperature=2413i,temperature_press_diff=0i,time_boot_ms=10834i,press_abs=994.8557739257812,press_diff=0 1732248888021883533
gps_raw_int,host=chris-ubuntu vel=0i,time_usec=0i,eph=65535i,epv=65535i,hacc=0i,vacc=0i,vel_acc=0i,hdg_acc=0i,satellites_visible=0i,alt_ellipsoid=0i,yaw=0i,lat=0i,lon=0i,alt=0i,cog=0i 1732248888022018274
system_time,host=chris-ubuntu time_unix_usec=0i,time_boot_ms=10854i 1732248888041820376
ahrs,host=chris-ubuntu omegaiy=0,omegaiz=0,accel_weight=0,renorm_val=0,error_rp=0.030685698613524437,error_yaw=1,omegaix=0 1732248888041905146
ahrs2,host=chris-ubuntu roll=0.026125818490982056,pitch=0.011056189425289631,yaw=-0.09020374715328217,altitude=0,lat=0i,lng=0i 1732248888041971247
hwstatus,host=chris-ubuntu i2cerr=0i,vcc=0i 1732248888042011267
ekf_status_report,host=chris-ubuntu pos_horiz_variance=0.0007347585051320493,pos_vert_variance=0.005778031889349222,compass_variance=0,terrain_alt_variance=0,airspeed_variance=0,velocity_variance=0 1732248888042104868
vibration,host=chris-ubuntu clipping_1=0i,clipping_2=0i,time_usec=10855246i,vibration_x=0.028420988470315933,vibration_y=0.0294770747423172,vibration_z=0.03735881671309471,clipping_0=0i 1732248888042175158
battery_status,host=chris-ubuntu current_battery=14i,current_consumed=0i,time_remaining=0i,id=0i,temperature=32767i,energy_consumed=0i,battery_remaining=99i 1732248888042323839
attitude,host=chris-ubuntu time_boot_ms=11094i,roll=0.02573358453810215,pitch=0.01148612517863512,yaw=-0.09225419908761978,rollspeed=0.0007512180600315332,pitchspeed=-0.00030292326118797064,yawspeed=-0.030488044023513794 1732248888280570817
global_position_int,host=chris-ubuntu hdg=35472i,time_boot_ms=11094i,lon=0i,relative_alt=-735i,vx=0i,lat=0i,alt=-730i,vy=0i,vz=0i 1732248888280623477
sys_status,host=chris-ubuntu load=53i,errors_count4=0i,errors_count1=0i,errors_count2=0i,errors_count3=0i,battery_remaining=99i,voltage_battery=3i,errors_comm=0i,current_battery=14i,drop_rate_comm=0i 1732248888280712508
power_status,host=chris-ubuntu vservo=0i,vcc=0i 1732248888280734248
meminfo,host=chris-ubuntu brkval=0i,freemem=58736i,freemem32=58736i 1732248888280759538
mission_current,host=chris-ubuntu seq=0i,total=0i,mission_mode=0i,mission_id=0i,fence_id=0i,rally_points_id=0i 1732248888280795448
vfr_hud,host=chris-ubuntu climb=-0,airspeed=0,groundspeed=0,heading=354i,throttle=0i,alt=-0.7299999594688416 1732248888280930829
servo_output_raw,host=chris-ubuntu time_usec=11094631i,servo13_raw=0i,servo12_raw=0i,servo3_raw=1500i,servo4_raw=1500i,servo6_raw=0i,servo11_raw=0i,servo8_raw=0i,servo14_raw=0i,servo15_raw=0i,servo16_raw=0i,port=0i,servo1_raw=0i,servo2_raw=0i,servo7_raw=0i,servo5_raw=1500i,servo9_raw=0i,servo10_raw=0i 1732248888281080190
rc_channels,host=chris-ubuntu chan12_raw=0i,chan16_raw=0i,chan17_raw=0i,time_boot_ms=11094i,chan3_raw=0i,chan7_raw=0i,chan11_raw=0i,chan13_raw=0i,chan14_raw=0i,chancount=0i,chan5_raw=0i,chan6_raw=0i,rssi=0i,chan8_raw=0i,chan9_raw=0i,chan10_raw=0i,chan15_raw=0i,chan18_raw=0i,chan1_raw=0i,chan2_raw=0i,chan4_raw=0i 1732248888281287672
raw_imu,host=chris-ubuntu time_usec=11094721i,zacc=-1014i,xgyro=0i,ygyro=0i,zgyro=-5i,xmag=0i,ymag=0i,zmag=0i,xacc=13i,yacc=18i,id=0i,temperature=2721i 1732248888281397232
scaled_pressure,host=chris-ubuntu temperature=2415i,temperature_press_diff=0i,time_boot_ms=11094i,press_abs=994.8751220703125,press_diff=0 1732248888281466143
gps_raw_int,host=chris-ubuntu cog=0i,satellites_visible=0i,alt_ellipsoid=0i,hacc=0i,lon=0i,alt=0i,epv=65535i,vacc=0i,time_usec=0i,eph=65535i,lat=0i,vel=0i,vel_acc=0i,hdg_acc=0i,yaw=0i 1732248888281667284
system_time,host=chris-ubuntu time_unix_usec=0i,time_boot_ms=11114i 1732248888300847952
ahrs,host=chris-ubuntu error_rp=0.024804677814245224,error_yaw=1,omegaix=0,omegaiy=0,omegaiz=0,accel_weight=0,renorm_val=0 1732248888300922713
ahrs2,host=chris-ubuntu lng=0i,roll=0.026166988536715508,pitch=0.011151373386383057,yaw=-0.09202992916107178,altitude=0,lat=0i 1732248888300989973
hwstatus,host=chris-ubuntu vcc=0i,i2cerr=0i 1732248888301021723
ekf_status_report,host=chris-ubuntu velocity_variance=0,pos_horiz_variance=0.0004080662038177252,pos_vert_variance=0.003995069768279791,compass_variance=0,terrain_alt_variance=0,airspeed_variance=0 1732248888301086954
vibration,host=chris-ubuntu clipping_0=0i,clipping_1=0i,clipping_2=0i,time_usec=11114965i,vibration_x=0.023232536390423775,vibration_y=0.025556035339832306,vibration_z=0.035389624536037445 1732248888301173824
battery_status,host=chris-ubuntu current_consumed=0i,energy_consumed=0i,id=0i,time_remaining=0i,battery_remaining=99i,temperature=32767i,current_battery=14i 1732248888301275685
statustext,host=chris-ubuntu text="EKF3 IMU0 tilt alignment complete",id=0i,chunk_seq=0i 1732248888380829184
attitude,host=chris-ubuntu pitch=0.011723111383616924,yaw=-0.11262553930282593,rollspeed=-0.0006391009665094316,pitchspeed=-0.000256338098552078,yawspeed=0.000577380124013871,time_boot_ms=11334i,roll=0.027023805305361748 1732248888520441185
global_position_int,host=chris-ubuntu lat=0i,lon=0i,relative_alt=-724i,vx=0i,vz=0i,time_boot_ms=11334i,alt=-720i,vy=0i,hdg=35355i 1732248888520523025
sys_status,host=chris-ubuntu errors_count2=0i,drop_rate_comm=0i,voltage_battery=1i,current_battery=14i,battery_remaining=99i,errors_count3=0i,errors_comm=0i,errors_count1=0i,load=54i,errors_count4=0i 1732248888520735527
power_status,host=chris-ubuntu vcc=0i,vservo=0i 1732248888520802467
meminfo,host=chris-ubuntu brkval=0i,freemem=58736i,freemem32=58736i 1732248888520848788
mission_current,host=chris-ubuntu mission_id=0i,fence_id=0i,rally_points_id=0i,seq=0i,total=0i,mission_mode=0i 1732248888520927298
vfr_hud,host=chris-ubuntu alt=-0.7199999690055847,climb=-0,airspeed=0,groundspeed=0,heading=353i,throttle=0i 1732248888521004179
servo_output_raw,host=chris-ubuntu servo3_raw=1500i,servo7_raw=0i,servo15_raw=0i,time_usec=11334839i,port=0i,servo4_raw=1500i,servo5_raw=1500i,servo6_raw=0i,servo10_raw=0i,servo13_raw=0i,servo16_raw=0i,servo2_raw=0i,servo8_raw=0i,servo9_raw=0i,servo11_raw=0i,servo12_raw=0i,servo14_raw=0i,servo1_raw=0i 1732248888521140470
rc_channels,host=chris-ubuntu chan9_raw=0i,chan10_raw=0i,chan14_raw=0i,chan1_raw=0i,chan4_raw=0i,chan7_raw=0i,rssi=0i,chan6_raw=0i,chan15_raw=0i,chan18_raw=0i,chan11_raw=0i,chan12_raw=0i,chan13_raw=0i,chan16_raw=0i,chan2_raw=0i,chan3_raw=0i,chan8_raw=0i,chan17_raw=0i,time_boot_ms=11334i,chancount=0i,chan5_raw=0i 1732248888521279811
raw_imu,host=chris-ubuntu ygyro=0i,zgyro=-35i,xmag=0i,ymag=0i,zmag=0i,id=0i,zacc=-1013i,xgyro=0i,yacc=18i,temperature=2723i,time_usec=11334935i,xacc=12i 1732248888521360571
scaled_pressure,host=chris-ubuntu press_abs=994.8739624023438,press_diff=0,temperature=2416i,temperature_press_diff=0i,time_boot_ms=11334i 1732248888521417341
gps_raw_int,host=chris-ubuntu satellites_visible=0i,vel_acc=0i,epv=65535i,vel=0i,cog=0i,vacc=0i,yaw=0i,time_usec=0i,lon=0i,hdg_acc=0i,alt_ellipsoid=0i,hacc=0i,alt=0i,eph=65535i,lat=0i 1732248888521579173
system_time,host=chris-ubuntu time_unix_usec=0i,time_boot_ms=11354i 1732248888540818311
ahrs,host=chris-ubuntu omegaix=0,omegaiy=0,omegaiz=0,accel_weight=0,renorm_val=0,error_rp=0.02068135514855385,error_yaw=1 1732248888540896672
ahrs2,host=chris-ubuntu lng=0i,roll=0.026674512773752213,pitch=0.010915051214396954,yaw=-0.1114293783903122,altitude=0,lat=0i 1732248888540958812
hwstatus,host=chris-ubuntu vcc=0i,i2cerr=0i 1732248888540999102
ekf_status_report,host=chris-ubuntu velocity_variance=0,pos_horiz_variance=0.00022561605146620423,pos_vert_variance=0.011749551631510258,compass_variance=0,terrain_alt_variance=0,airspeed_variance=0 1732248888541078503
vibration,host=chris-ubuntu time_usec=11355173i,vibration_x=0.05483847111463547,vibration_y=0.07180238515138626,vibration_z=0.039553187787532806,clipping_0=0i,clipping_1=0i,clipping_2=0i 1732248888541136803
battery_status,host=chris-ubuntu temperature=32767i,current_consumed=0i,id=0i,battery_remaining=99i,time_remaining=0i,current_battery=14i,energy_consumed=0i 1732248888541303974
heartbeat,host=chris-ubuntu mavlink_version=3i,custom_mode=4i 1732248888740811064
rc_channels_scaled,host=chris-ubuntu time_boot_ms=11554i,chan2_scaled=0i,chan3_scaled=0i,chan4_scaled=0i,rssi=0i,port=0i,chan1_scaled=0i,chan5_scaled=0i,chan6_scaled=0i,chan7_scaled=0i,chan8_scaled=0i 1732248888740879524
attitude,host=chris-ubuntu yaw=-0.11246630549430847,rollspeed=-0.00002720601696637459,pitchspeed=0.000013034511539444793,yawspeed=-0.00007444526272593066,time_boot_ms=11594i,roll=0.026854850351810455,pitch=0.011796699836850166 1732248888780208627
global_position_int,host=chris-ubuntu lat=0i,alt=-800i,vx=0i,vy=0i,vz=0i,time_boot_ms=11594i,relative_alt=-805i,hdg=35356i,lon=0i 1732248888780331367
sys_status,host=chris-ubuntu drop_rate_comm=0i,errors_count2=0i,load=54i,voltage_battery=3i,errors_comm=0i,errors_count1=0i,errors_count3=0i,battery_remaining=99i,errors_count4=0i,current_battery=14i 1732248888780548729
power_status,host=chris-ubuntu vcc=0i,vservo=0i 1732248888780625239
meminfo,host=chris-ubuntu brkval=0i,freemem=58736i,freemem32=58736i 1732248888780723530
mission_current,host=chris-ubuntu mission_mode=0i,mission_id=0i,fence_id=0i,rally_points_id=0i,seq=0i,total=0i 1732248888780822901
vfr_hud,host=chris-ubuntu groundspeed=0,heading=353i,throttle=0i,alt=-0.7999999523162842,climb=-0,airspeed=0 1732248888780915001
servo_output_raw,host=chris-ubuntu time_usec=11594897i,servo4_raw=1500i,servo11_raw=0i,servo12_raw=0i,servo13_raw=0i,servo16_raw=0i,port=0i,servo10_raw=0i,servo1_raw=0i,servo3_raw=1500i,servo5_raw=1500i,servo6_raw=0i,servo9_raw=0i,servo15_raw=0i,servo2_raw=0i,servo7_raw=0i,servo8_raw=0i,servo14_raw=0i 1732248888781104232
rc_channels,host=chris-ubuntu chan10_raw=0i,chan13_raw=0i,chan17_raw=0i,chan18_raw=0i,chan2_raw=0i,chan4_raw=0i,chan5_raw=0i,chan6_raw=0i,chancount=0i,chan12_raw=0i,chan14_raw=0i,time_boot_ms=11594i,rssi=0i,chan9_raw=0i,chan11_raw=0i,chan15_raw=0i,chan16_raw=0i,chan1_raw=0i,chan3_raw=0i,chan7_raw=0i,chan8_raw=0i 1732248888781310464
raw_imu,host=chris-ubuntu yacc=19i,zacc=-1015i,xgyro=0i,xmag=0i,ymag=0i,id=0i,temperature=2725i,time_usec=11594990i,xacc=13i,ygyro=0i,zgyro=0i,zmag=0i 1732248888781441635
scaled_pressure,host=chris-ubuntu temperature=2418i,temperature_press_diff=0i,time_boot_ms=11614i,press_abs=994.8832397460938,press_diff=0 1732248888800117799
gps_raw_int,host=chris-ubuntu eph=65535i,satellites_visible=0i,hacc=0i,time_usec=0i,alt=0i,epv=65535i,vel_acc=0i,lon=0i,yaw=0i,cog=0i,hdg_acc=0i,alt_ellipsoid=0i,vacc=0i,lat=0i,vel=0i 1732248888800212390
system_time,host=chris-ubuntu time_unix_usec=0i,time_boot_ms=11614i 1732248888800239880
ahrs,host=chris-ubuntu accel_weight=0,renorm_val=0,error_rp=0.017100131139159203,error_yaw=1,omegaix=0,omegaiy=0,omegaiz=0 1732248888800402561
ahrs2,host=chris-ubuntu pitch=0.011088857427239418,yaw=-0.11127270758152008,altitude=0,lat=0i,lng=0i,roll=0.026623547077178955 1732248888800478012
hwstatus,host=chris-ubuntu vcc=0i,i2cerr=0i 1732248888800518472
ekf_status_report,host=chris-ubuntu velocity_variance=0,pos_horiz_variance=0.00024117408611346036,pos_vert_variance=0.0074366191402077675,compass_variance=0,terrain_alt_variance=0,airspeed_variance=0 1732248888800610873
vibration,host=chris-ubuntu clipping_0=0i,clipping_1=0i,clipping_2=0i,time_usec=11614896i,vibration_x=0.026423677802085876,vibration_y=0.025993719696998596,vibration_z=0.03267410770058632 1732248888800689703
